{
  "metadata": {
    "country": "France",
    "status": "demo-seed-not-exhaustive",
    "lastUpdated": "2026-05-27",
    "notice": "Small demonstrator dataset for the compass UI. Replace with licensed/current MICHELIN Guide data before production."
  },
  "restaurants": [
    {
      "id": "plenitude-cheval-blanc-paris",
      "name": "Plénitude - Cheval Blanc Paris",
      "city": "Paris",
      "region": "Île-de-France",
      "address": "8 quai du Louvre, 75001 Paris",
      "latitude": 48.85908,
      "longitude": 2.34088,
      "distinction": "3-stars",
      "greenStar": false,
      "cuisine": "Creative",
      "michelinUrl": "https://guide.michelin.com/en/ile-de-france/paris/restaurant/plenitude-cheval-blanc-paris"
    },
    {
      "id": "le-cinq-paris",
      "name": "Le Cinq",
      "city": "Paris",
      "region": "Île-de-France",
      "address": "31 avenue George-V, 75008 Paris",
      "latitude": 48.86883,
      "longitude": 2.30093,
      "distinction": "3-stars",
      "greenStar": false,
      "cuisine": "Classic Cuisine",
      "michelinUrl": "https://guide.michelin.com/en/ile-de-france/paris/restaurant/le-cinq"
    },
    {
      "id": "le-pre-catelan-paris",
      "name": "Le Pré Catelan",
      "city": "Paris",
      "region": "Île-de-France",
      "address": "Bois de Boulogne, 75016 Paris",
      "latitude": 48.86374,
      "longitude": 2.24808,
      "distinction": "3-stars",
      "greenStar": false,
      "cuisine": "Creative",
      "michelinUrl": "https://guide.michelin.com/en/ile-de-france/paris/restaurant/le-pre-catelan"
    },
    {
      "id": "le-grand-restaurant-jean-francois-piege",
      "name": "Le Grand Restaurant - Jean-François Piège",
      "city": "Paris",
      "region": "Île-de-France",
      "address": "7 rue d'Aguesseau, 75008 Paris",
      "latitude": 48.8696,
      "longitude": 2.3215,
      "distinction": "3-stars",
      "greenStar": false,
      "cuisine": "Modern Cuisine",
      "michelinUrl": "https://guide.michelin.com/en/ile-de-france/paris/restaurant/le-grand-restaurant-jean-francois-piege"
    },
    {
      "id": "les-morainieres-jongieux",
      "name": "Les Morainières",
      "city": "Jongieux",
      "region": "Auvergne-Rhône-Alpes",
      "address": "1400 route de Marestel, 73170 Jongieux",
      "latitude": 45.7471,
      "longitude": 5.7985,
      "distinction": "3-stars",
      "greenStar": false,
      "cuisine": "Creative",
      "michelinUrl": "https://guide.michelin.com/en/auvergne-rhone-alpes/jongieux/restaurant/les-morainieres"
    },
    {
      "id": "restaurant-pic-valence",
      "name": "Maison Pic",
      "city": "Valence",
      "region": "Auvergne-Rhône-Alpes",
      "address": "285 avenue Victor-Hugo, 26000 Valence",
      "latitude": 44.9182,
      "longitude": 4.8843,
      "distinction": "3-stars",
      "greenStar": false,
      "cuisine": "Creative",
      "michelinUrl": "https://guide.michelin.com/en/auvergne-rhone-alpes/valence/restaurant/pic"
    },
    {
      "id": "flocons-de-sel-megeve",
      "name": "Flocons de Sel",
      "city": "Megève",
      "region": "Auvergne-Rhône-Alpes",
      "address": "1775 route du Leutaz, 74120 Megève",
      "latitude": 45.8438,
      "longitude": 6.6257,
      "distinction": "3-stars",
      "greenStar": true,
      "cuisine": "Modern Cuisine",
      "michelinUrl": "https://guide.michelin.com/en/auvergne-rhone-alpes/megeve/restaurant/flocons-de-sel"
    },
    {
      "id": "restaurant-marcon",
      "name": "Restaurant Marcon",
      "city": "Saint-Bonnet-le-Froid",
      "region": "Auvergne-Rhône-Alpes",
      "address": "Larsiallas, 43290 Saint-Bonnet-le-Froid",
      "latitude": 45.1427,
      "longitude": 4.4365,
      "distinction": "3-stars",
      "greenStar": true,
      "cuisine": "Creative",
      "michelinUrl": "https://guide.michelin.com/en/auvergne-rhone-alpes/saint-bonnet-le-froid/restaurant/restaurant-marcon"
    },
    {
      "id": "mirazur-menton",
      "name": "Mirazur",
      "city": "Menton",
      "region": "Provence-Alpes-Côte d'Azur",
      "address": "30 avenue Aristide-Briand, 06500 Menton",
      "latitude": 43.7854,
      "longitude": 7.5297,
      "distinction": "3-stars",
      "greenStar": true,
      "cuisine": "Creative",
      "michelinUrl": "https://guide.michelin.com/en/provence-alpes-cote-dazur/menton/restaurant/mirazur"
    },
    {
      "id": "la-vague-d-or-saint-tropez",
      "name": "La Vague d'Or - Cheval Blanc St-Tropez",
      "city": "Saint-Tropez",
      "region": "Provence-Alpes-Côte d'Azur",
      "address": "Plage de la Bouillabaisse, 83990 Saint-Tropez",
      "latitude": 43.267,
      "longitude": 6.628,
      "distinction": "3-stars",
      "greenStar": false,
      "cuisine": "Creative",
      "michelinUrl": "https://guide.michelin.com/en/provence-alpes-cote-dazur/saint-tropez/restaurant/la-vague-d-or-cheval-blanc-st-tropez"
    },
    {
      "id": "le-petit-nice-marseille",
      "name": "Le Petit Nice",
      "city": "Marseille",
      "region": "Provence-Alpes-Côte d'Azur",
      "address": "17 rue des Braves, 13007 Marseille",
      "latitude": 43.2805,
      "longitude": 5.3518,
      "distinction": "3-stars",
      "greenStar": false,
      "cuisine": "Seafood",
      "michelinUrl": "https://guide.michelin.com/en/provence-alpes-cote-dazur/marseille/restaurant/le-petit-nice"
    },
    {
      "id": "loustau-de-baumaniere",
      "name": "L'Oustau de Baumanière",
      "city": "Les Baux-de-Provence",
      "region": "Provence-Alpes-Côte d'Azur",
      "address": "Mas de Baumanière, 13520 Les Baux-de-Provence",
      "latitude": 43.7424,
      "longitude": 4.7954,
      "distinction": "3-stars",
      "greenStar": false,
      "cuisine": "Classic Cuisine",
      "michelinUrl": "https://guide.michelin.com/en/provence-alpes-cote-dazur/les-baux-de-provence/restaurant/l-oustau-de-baumaniere"
    },
    {
      "id": "auberge-du-vieux-puits",
      "name": "Auberge du Vieux Puits",
      "city": "Fontjoncouse",
      "region": "Occitanie",
      "address": "5 avenue Saint-Victor, 11360 Fontjoncouse",
      "latitude": 43.0493,
      "longitude": 2.7905,
      "distinction": "3-stars",
      "greenStar": false,
      "cuisine": "Creative",
      "michelinUrl": "https://guide.michelin.com/en/occitanie/fontjoncouse/restaurant/auberge-du-vieux-puits"
    },
    {
      "id": "alain-ducasse-au-plaza-athenee",
      "name": "Jean Imbert au Plaza Athénée",
      "city": "Paris",
      "region": "Île-de-France",
      "address": "25 avenue Montaigne, 75008 Paris",
      "latitude": 48.8662,
      "longitude": 2.3045,
      "distinction": "1-star",
      "greenStar": false,
      "cuisine": "Modern Cuisine",
      "michelinUrl": "https://guide.michelin.com/en/ile-de-france/paris/restaurant/jean-imbert-au-plaza-athenee"
    },
    {
      "id": "hakuba-paris",
      "name": "Hakuba",
      "city": "Paris",
      "region": "Île-de-France",
      "address": "8 quai du Louvre, 75001 Paris",
      "latitude": 48.85908,
      "longitude": 2.34088,
      "distinction": "2-stars",
      "greenStar": false,
      "cuisine": "Japanese Contemporary",
      "michelinUrl": "https://guide.michelin.com/en/ile-de-france/paris/restaurant/hakuba"
    },
    {
      "id": "virtus-paris",
      "name": "Virtus",
      "city": "Paris",
      "region": "Île-de-France",
      "address": "29 rue de Cotte, 75012 Paris",
      "latitude": 48.8501,
      "longitude": 2.3781,
      "distinction": "2-stars",
      "greenStar": false,
      "cuisine": "Modern Cuisine",
      "michelinUrl": "https://guide.michelin.com/en/ile-de-france/paris/restaurant/virtus"
    },
    {
      "id": "datil-paris",
      "name": "Datil",
      "city": "Paris",
      "region": "Île-de-France",
      "address": "13 rue des Gravilliers, 75003 Paris",
      "latitude": 48.8647,
      "longitude": 2.3563,
      "distinction": "1-star",
      "greenStar": true,
      "cuisine": "Modern Cuisine",
      "michelinUrl": "https://guide.michelin.com/en/ile-de-france/paris/restaurant/datil"
    },
    {
      "id": "bonnie-cahors",
      "name": "Bonnie",
      "city": "Cahors",
      "region": "Occitanie",
      "address": "Cahors",
      "latitude": 44.4475,
      "longitude": 1.4409,
      "distinction": "bib-gourmand",
      "greenStar": false,
      "cuisine": "Modern Cuisine",
      "michelinUrl": "https://guide.michelin.com/en/search?q=Bonnie%20Cahors"
    },
    {
      "id": "le-bouchon-des-filles-lyon",
      "name": "Le Bouchon des Filles",
      "city": "Lyon",
      "region": "Auvergne-Rhône-Alpes",
      "address": "20 rue Sergent-Blandan, 69001 Lyon",
      "latitude": 45.7687,
      "longitude": 4.8327,
      "distinction": "bib-gourmand",
      "greenStar": false,
      "cuisine": "Lyonnaise",
      "michelinUrl": "https://guide.michelin.com/en/search?q=Le%20Bouchon%20des%20Filles%20Lyon"
    },
    {
      "id": "septime-paris",
      "name": "Septime",
      "city": "Paris",
      "region": "Île-de-France",
      "address": "80 rue de Charonne, 75011 Paris",
      "latitude": 48.8536,
      "longitude": 2.3805,
      "distinction": "selected",
      "greenStar": false,
      "cuisine": "Modern Cuisine",
      "michelinUrl": "https://guide.michelin.com/en/ile-de-france/paris/restaurant/septime"
    },
    {
      "id": "la-mercerie-marseille",
      "name": "La Mercerie",
      "city": "Marseille",
      "region": "Provence-Alpes-Côte d'Azur",
      "address": "9 cours Saint-Louis, 13001 Marseille",
      "latitude": 43.2962,
      "longitude": 5.3762,
      "distinction": "selected",
      "greenStar": false,
      "cuisine": "Modern Cuisine",
      "michelinUrl": "https://guide.michelin.com/en/search?q=La%20Mercerie%20Marseille"
    }
  ]
}
